,Borough,Neighbourhood,Venue,Venue_id,Category,Location.lat,Location.lng,Cluster Labels,1st Most Common Venue,2nd Most Common Venue,3rd Most Common Venue,4th Most Common Venue,5th Most Common Venue,6th Most Common Venue,7th Most Common Venue,8th Most Common Venue,9th Most Common Venue,10th Most Common Venue
0,North York,Parkwoods,Petro-Canada,4c361e9118e72d7fca4714f5,Gas Station,43.75795,-79.315187,0,Coffee Shop,Bowling Alley,Breakfast Spot,Bank,Sushi Restaurant,Supermarket,Beer Store,Liquor Store,Spa,Bus Line
1,Scarborough,L'Amoreaux West,Petro-Canada,4c1aab3ee9c4ef3bad7f45aa,Gas Station,43.819847,-79.326214,4,Chinese Restaurant,Bubble Tea Shop,Asian Restaurant,Shopping Mall,Fast Food Restaurant,Sandwich Place,Supermarket,Dumpling Restaurant,Szechuan Restaurant,Ramen Restaurant
2,Scarborough,L'Amoreaux West,Petro-Canada,4b940518f964a520dc6134e3,Gas Station,43.800817,-79.296738,4,Chinese Restaurant,Pizza Place,Coffee Shop,Shopping Mall,Gas Station,Grocery Store,Noodle House,Pharmacy,Dance Studio,Dumpling Restaurant
3,North York,"Fairview,Henry Farm,Oriole",Petro-Canada,4d3f1dc83ec9a35df6916081,Gas Station,43.775024,-79.333001,0,Middle Eastern Restaurant,Chinese Restaurant,Coffee Shop,Gym / Fitness Center,Pub,Electronics Store,Eastern European Restaurant,Sandwich Place,Gym,Jewelry Store
4,North York,"Silver Hills,York Mills",Mr Shine,517bd64b498e8b8341545f1c,Car Wash,43.76860601720719,-79.3862966772419,0,Coffee Shop,Café,Clothing Store,Park,Supermarket,Chinese Restaurant,Tea Room,Bank,Furniture / Home Store,Restaurant
5,Downtown Toronto,Church and Wellesley,Canadian Tire Gas+,4c4685ab19fde21ea3c70576,Gas Station,43.67283952465455,-79.387527707766,0,Italian Restaurant,Coffee Shop,Gourmet Shop,Café,Shopping Mall,Thai Restaurant,Furniture / Home Store,French Restaurant,Lounge,Spa
6,Scarborough,Cedarbrae,Petro-Canada,4c3fb24ace54e21ee181081a,Gas Station,43.782135,-79.234784,0,Hotel,Bakery,Coffee Shop,Sandwich Place,Fast Food Restaurant,Steakhouse,Bistro,Gas Station,Sporting Goods Shop,Health & Beauty Service
7,Scarborough,Agincourt,Petro-Canada,4ddb992bd4c009d3c58b7857,Gas Station,43.793968,-79.239585,4,Pharmacy,Diner,Sandwich Place,Gas Station,Bistro,Coffee Shop,Fast Food Restaurant,Chinese Restaurant,Yoga Studio,Ethiopian Restaurant
8,North York,"Flemingdon Park,Don Mills South",Esso,4baba429f964a520fabb3ae3,Gas Station,43.722746514447074,-79.33895830284276,0,Dim Sum Restaurant,Italian Restaurant,Beer Store,Restaurant,Office,Supermarket,Chinese Restaurant,Gym,Asian Restaurant,Japanese Restaurant
9,Scarborough,"Agincourt North,L'Amoreaux East,Milliken,Steeles East",Shell,4b65ec0ef964a52082082be3,Gas Station,43.85665670605055,-79.30528163909912,4,Chinese Restaurant,Dessert Shop,Bubble Tea Shop,Hotpot Restaurant,Malay Restaurant,Thai Restaurant,Tea Room,Bakery,Supermarket,Sports Club
10,North York,"Northwood Park,York University",Esso,4bda3aca3904a593a7ca459e,Gas Station,43.768180407754336,-79.46737834757252,0,Greek Restaurant,Restaurant,Grocery Store,Gym,Sushi Restaurant,Chinese Restaurant,Middle Eastern Restaurant,Hardware Store,Deli / Bodega,Coffee Shop
11,East Toronto,The Beaches,Esso,4c210f28ebe52d7ffa983178,Gas Station,43.6911309461129,-79.28799150210405,0,Coffee Shop,Grocery Store,Burger Joint,Liquor Store,Sandwich Place,Bank,Gas Station,Camera Store,Discount Store,Sporting Goods Shop
12,Scarborough,Agincourt,Canadian Tire Gas+,4edeb3d5b8f76b6e9cd76f27,Gas Station,43.78998337938359,-79.2596018621999,0,Breakfast Spot,Pool Hall,Latin American Restaurant,Sandwich Place,Seafood Restaurant,Lounge,Clothing Store,Caribbean Restaurant,Bakery,Intersection
13,North York,"Silver Hills,York Mills",Canadian Tire Gas+,4db48b6f4df05e5aaae21a1f,Gas Station,43.77052621408672,-79.37312571119537,0,Sporting Goods Shop,Chinese Restaurant,Breakfast Spot,Fast Food Restaurant,Moving Target,Furniture / Home Store,Scandinavian Restaurant,Bank,Sandwich Place,Gas Station
14,North York,"Silver Hills,York Mills",Nanak Car Wash,4e6aba30091a37e2ddc64131,Car Wash,43.770153889272954,-79.36979036590805,0,Furniture / Home Store,Moving Target,Persian Restaurant,Clothing Store,Burger Joint,Bubble Tea Shop,Park,Breakfast Spot,Fish Market,Sporting Goods Shop
15,Scarborough,"East Birchmount Park,Ionview,Kennedy Park",Esso,530b8afc498e31ec5d20597f,Gas Station,43.7312,-79.288,0,Supermarket,Clothing Store,Fast Food Restaurant,Fried Chicken Joint,Electronics Store,Liquor Store,Furniture / Home Store,Sports Bar,Laser Tag,Sporting Goods Shop
16,Downtown Toronto,Church and Wellesley,Auto Groom (3rd Floor OMP Parking),4f3e52c1e4b0eebf130e4920,Car Wash,43.66974146549747,-79.37936873192209,0,Coffee Shop,Restaurant,Pie Shop,Men's Store,Library,Steakhouse,Bistro,Breakfast Spot,Burger Joint,Mediterranean Restaurant
17,Scarborough,L'Amoreaux West,Superwash,52cda79211d2f946cc02518f,Car Wash,43.82248306274414,-79.32553100585938,4,Chinese Restaurant,Tea Room,Bubble Tea Shop,Hotpot Restaurant,Dessert Shop,Shopping Mall,Electronics Store,Supermarket,Sandwich Place,Szechuan Restaurant
18,East York,"Woodbine Gardens,Parkview Hill",OP Carwash,4fa54edde4b09d4d4579d70b,Car Wash,43.71374314040043,-79.30630791914216,0,Gym / Fitness Center,BBQ Joint,Fast Food Restaurant,Brewery,Bakery,Coffee Shop,Electronics Store,Ethiopian Restaurant,Event Space,Falafel Restaurant
19,Downtown Toronto,"Commerce Court,Victoria Hotel",SteamJet Auto Cleaning,50ad42d0e4b013e1bd4d3db8,Car Wash,43.64778705733645,-79.37802157124443,0,Café,Restaurant,Coffee Shop,Japanese Restaurant,Museum,Tailor Shop,Gastropub,Bakery,Tea Room,Steakhouse
20,Scarborough,"Dorset Park,Scarborough Town Centre,Wexford Heights",Robs Complete Car Care,4fd269d9e4b0b31b840a96c9,Car Wash,43.76318477450299,-79.27700589337387,0,Electronics Store,Fast Food Restaurant,Automotive Shop,Furniture / Home Store,Light Rail Station,Dessert Shop,Pet Store,Fish Market,Fish & Chips Shop,Financial or Legal Service
21,Scarborough,Cedarbrae,Hybrid Auto Cleaning Service,50a508d3e4b0d190c5f1a474,Car Wash,43.771875,-79.262074,0,Pizza Place,Coffee Shop,Bank,Gas Station,Storage Facility,Supermarket,Sporting Goods Shop,Cosmetics Shop,Flea Market,Fish Market
22,Scarborough,Cedarbrae,Professional Interior & Exterior Detailing,4fff05aee4b00c7849be0e7d,Car Wash,43.776852,-79.250694,0,Wings Joint,Pharmacy,Italian Restaurant,Yoga Studio,American Restaurant,Coffee Shop,Deli / Bodega,Restaurant,Movie Theater,Grocery Store
23,North York,Victoria Village,Jet Kleen,4b4a0abbf964a520c37826e3,Car Wash,43.7175938317509,-79.30539590991975,0,Pharmacy,Italian Restaurant,Boxing Gym,Storage Facility,Martial Arts Dojo,Food,Optical Shop,Grocery Store,Gym / Fitness Center,BBQ Joint
24,East York,Woodbine Heights,Mr. Shine Car Wash,5a9392c448b04e6e4c60239b,Car Wash,43.687534,-79.30598,0,Grocery Store,Bus Line,Coffee Shop,Optical Shop,Sandwich Place,Sushi Restaurant,Gas Station,Metro Station,Thai Restaurant,Doctor's Office
25,Scarborough,"East Birchmount Park,Ionview,Kennedy Park",Colonial car wash,4caf3dd439458cfabdbdf89f,Car Wash,43.73258796319562,-79.26909541468808,0,Coffee Shop,Pizza Place,Grocery Store,Convenience Store,Discount Store,Chinese Restaurant,Sandwich Place,Bus Station,Bus Line,Pharmacy
26,Scarborough,"Agincourt North,L'Amoreaux East,Milliken,Steeles East",Super Wash Touchfree,53027b6a498e8287b7f9cd35,Car Wash,43.848374408849594,-79.28104620008571,0,Spa,Soccer Field,Bus Stop,Health & Beauty Service,Park,Playground,Fish Market,Fish & Chips Shop,Financial or Legal Service,Filipino Restaurant
27,North York,Victoria Village,Esso Touchless Car Wash,56633dfb498e22046a52543b,Car Wash,43.72566,-79.314586,0,Pizza Place,Intersection,Portuguese Restaurant,French Restaurant,Coffee Shop,Hockey Arena,Financial or Legal Service,Fish & Chips Shop,Filipino Restaurant,Fish Market
28,East Toronto,The Beaches,Shell,4f1c5e8fe4b064e65cf513f0,Gas Station,43.688015437548245,-79.2837529014047,0,Grocery Store,Coffee Shop,Construction & Landscaping,Paper / Office Supplies Store,Liquor Store,Beer Store,Gym,Diner,Fast Food Restaurant,Sporting Goods Shop
29,Downtown Toronto,Harbourfront,Big Wax Car Wash,4db2feb71e7248d135820b3d,Car Wash,43.65107412592739,-79.36303530270054,0,Coffee Shop,Bakery,Cosmetics Shop,Asian Restaurant,Shoe Store,Farmers Market,Café,French Restaurant,Liquor Store,Restaurant
30,Scarborough,L'Amoreaux West,Petro-Canada Touchless Carwash,520fa63811d232287e513570,Car Wash,43.817413330078125,-79.33455657958984,4,Chinese Restaurant,Bubble Tea Shop,Xinjiang Restaurant,Coffee Shop,Asian Restaurant,Fast Food Restaurant,Dumpling Restaurant,Intersection,Flea Market,Fish Market
31,North York,Glencairn,Coin Op Car Wash,4d7d16fd5a396dcb65d781fb,Car Wash,43.70349107534574,-79.45147638779915,0,Mediterranean Restaurant,Paintball Field,Food & Drink Shop,Fast Food Restaurant,Bike Shop,Sandwich Place,Gas Station,Bakery,Trail,Gym / Fitness Center
32,Queen's Park,Queen's Park,Cato's Auto Salon,52176f4b11d29f20100056b6,Car Wash,43.66999856149801,-79.39292722488099,0,Cosmetics Shop,Women's Store,Coffee Shop,Clothing Store,Boutique,Men's Store,Gourmet Shop,Gift Shop,Gastropub,French Restaurant
33,Scarborough,Upper Rouge,Super Wash,59a587b5d0a14947110b090d,Car Wash,43.85183,-79.253349,0,Hakka Restaurant,Middle Eastern Restaurant,Grocery Store,Paper / Office Supplies Store,Asian Restaurant,Smoothie Shop,Sandwich Place,Sporting Goods Shop,Restaurant,Fried Chicken Joint
34,North York,Willowdale West,Esso Carwash,4fb0ec32e4b084c29a0d1fab,Car Wash,43.780479,-79.444064,0,Pizza Place,Park,Home Service,Grocery Store,Butcher,Coffee Shop,Dumpling Restaurant,Eastern European Restaurant,Electronics Store,Ethiopian Restaurant
35,North York,"Newtonbrook,Willowdale",Esso Touchless Car Wash,59dab5188a6f170c2fa1609f,Car Wash,43.798141,-79.419906,0,Korean Restaurant,Coffee Shop,Middle Eastern Restaurant,Hardware Store,Juice Bar,Café,Sandwich Place,Supermarket,Cantonese Restaurant,Sushi Restaurant
36,Scarborough,"Birch Cliff,Cliffside West",Traditions Auto Service - Coin-Op Carwash,5c843fd486bc49003902b312,Car Wash,43.697437,-79.27556,0,Convenience Store,Park,Restaurant,Bus Stop,Fast Food Restaurant,Dessert Shop,Fish & Chips Shop,Financial or Legal Service,Filipino Restaurant,Fish Market
37,North York,Willowdale South,Rambo Car Care,57ded17bcd10fe734c50b69b,Car Wash,43.762402,-79.410942,0,Japanese Restaurant,Grocery Store,Burger Joint,Fried Chicken Joint,Yoga Studio,Pizza Place,Sushi Restaurant,Steakhouse,Restaurant,Ramen Restaurant
38,North York,Victoria Village,PetroCanada Car Wash,56e16e5a498ebcd3b86aed5c,Car Wash,43.72597697105767,-79.29756890764523,0,Fast Food Restaurant,Clothing Store,Coffee Shop,Grocery Store,Cosmetics Shop,Middle Eastern Restaurant,Shopping Plaza,Shopping Mall,Supermarket,Sandwich Place
39,East Toronto,Studio District,Esso Car Wash,51216e09e4b06dc366d29e30,Car Wash,43.654307701562175,-79.3377461774713,0,Coworking Space,Coffee Shop,Baseball Field,Lake,Gym,Garden Center,Diner,Performing Arts Venue,Business Service,Filipino Restaurant
40,North York,Hillcrest Village,MExpress Auto Detailing,58ba6f9a1d21ba1e3b92ecde,Auto Workshop,43.82569,-79.358665,0,Yoga Studio,Asian Restaurant,Music Store,Convenience Store,Cupcake Shop,Electronics Store,Food & Drink Shop,Food,Flower Shop,Flea Market
41,North York,Victoria Village,Canadian Tire Gas+,4c34cbd6213c2d7f1419395d,Gas Station,43.71963763889704,-79.30481662180023,0,Pizza Place,Coffee Shop,BBQ Joint,Food,Grocery Store,Beer Store,Department Store,Sandwich Place,Indian Restaurant,Pharmacy
42,Scarborough,Upper Rouge,Canadian Tire Gas+,4c4229deff711b8d401f1305,Gas Station,43.852116,-79.255465,0,Hakka Restaurant,Middle Eastern Restaurant,Grocery Store,Paper / Office Supplies Store,Asian Restaurant,Smoothie Shop,Sandwich Place,Sporting Goods Shop,Restaurant,Fried Chicken Joint
43,Scarborough,"East Birchmount Park,Ionview,Kennedy Park",Canadian Tire Gas+,4bf46bcde5eba593baa61f90,Gas Station,43.735243,-79.253597,0,Pizza Place,Chinese Restaurant,Pharmacy,Burger Joint,Fast Food Restaurant,Beer Store,Liquor Store,Rental Car Location,Discount Store,Breakfast Spot
44,Scarborough,"Agincourt North,L'Amoreaux East,Milliken,Steeles East",Dragon Car Wash,4e218e2988774a43b76a9d10,Car Wash,43.82348995413391,-79.30572461010443,4,Japanese Restaurant,Bakery,Chinese Restaurant,Bubble Tea Shop,Hong Kong Restaurant,Vietnamese Restaurant,Asian Restaurant,Tea Room,Snack Place,Food & Drink Shop
45,Scarborough,L'Amoreaux West,Excellent Car Wash & Care Centre星皇汽車護理洗車中心,513cc96ae4b06a870749afaf,Car Wash,43.82012113295353,-79.33184337261223,4,Chinese Restaurant,Bubble Tea Shop,Supermarket,Fast Food Restaurant,Korean Restaurant,Szechuan Restaurant,Asian Restaurant,Dumpling Restaurant,Hong Kong Restaurant,Ice Cream Shop
46,North York,"Fairview,Henry Farm,Oriole",Circle K Carwash,5ad924cfc666666ab5c22510,Car Wash,43.775458,-79.347965,0,Coffee Shop,Clothing Store,Food Court,Juice Bar,Shopping Mall,Fast Food Restaurant,Liquor Store,Electronics Store,Candy Store,Restaurant
47,Downtown Toronto,Berczy Park,Nahwi Car Care,52bf4925498eada038b5640b,Car Wash,43.64301742643359,-79.37766965665584,0,Hotel,Steakhouse,Coffee Shop,Japanese Restaurant,Liquor Store,Neighborhood,Beer Bar,Basketball Stadium,Lake,Salad Place
48,North York,"Fairview,Henry Farm,Oriole",Parkway Car Was,4f5a70fce4b0300585a66f14,Car Wash,43.77460023433525,-79.33809824346469,4,Middle Eastern Restaurant,Pharmacy,Coffee Shop,Grocery Store,Chinese Restaurant,Shopping Mall,Japanese Restaurant,Hotel,Sandwich Place,Filipino Restaurant
49,Downtown Toronto,"Adelaide,King,Richmond",Mr. Shine Express Carwash,52fa273d498ed082ca71ee30,Car Wash,43.65183639526367,-79.3823471069336,0,Cosmetics Shop,Steakhouse,Coffee Shop,Asian Restaurant,American Restaurant,Monument / Landmark,Bookstore,Food Court,Shopping Mall,Seafood Restaurant
50,Scarborough,"Dorset Park,Scarborough Town Centre,Wexford Heights",Avenue Car & Truck Rentals,5162d00ae4b0d7d62e65c265,Car Wash,43.757928,-79.276076,4,Indian Restaurant,Electronics Store,Pet Store,Vietnamese Restaurant,Chinese Restaurant,Fast Food Restaurant,Yoga Studio,Farmers Market,Eastern European Restaurant,Ethiopian Restaurant
51,North York,"CFB Toronto,Downsview East",0098 Optimum Car Care,56872f58498e36861fd7da29,Car Wash,43.7344798,-79.44647570000001,0,Fast Food Restaurant,Pizza Place,Italian Restaurant,Pet Store,Coffee Shop,Convenience Store,Jewelry Store,Metro Station,Hardware Store,Flea Market
52,West Toronto,"High Park,The Junction South",Junction Car Wash,5c2150b3ee7120002cf9cc28,Car Wash,43.665367,-79.476261,0,Coffee Shop,Bar,Deli / Bodega,Nail Salon,Breakfast Spot,Italian Restaurant,Bus Line,Cajun / Creole Restaurant,Bakery,Burger Joint
53,York,"Del Ray,Keelesdale,Mount Dennis,Silverthorn",Petro-Canada,4d222c352eb1f04d2e0dfec1,Gas Station,43.680812,-79.475829,0,Latin American Restaurant,Coffee Shop,Bakery,Sandwich Place,Thrift / Vintage Store,Gas Station,Beer Store,Café,BBQ Joint,Filipino Restaurant
54,North York,Glencairn,Silver Star Car Wash,4c1155b26e5dc9b639ecaf2d,Car Wash,43.70931545540021,-79.45376678691572,0,Pizza Place,Rental Car Location,Fish Market,Mediterranean Restaurant,Bookstore,Fast Food Restaurant,Furniture / Home Store,Gas Station,Grocery Store,Gym
55,East Toronto,"The Beaches West,India Bazaar",The Beaches Coin-Op Carwash,4b942458f964a520dd6a34e3,Car Wash,43.667473,-79.313174,0,Park,Pizza Place,Bakery,Pub,Fish & Chips Shop,Fast Food Restaurant,Massage Studio,Butcher,Steakhouse,Liquor Store
56,Downtown Toronto,Church and Wellesley,Anna Car Wash,5aa94d0f8173cb153e8e92e0,Car Wash,43.671927,-79.385537,0,Coffee Shop,Hotel,Café,Italian Restaurant,Gourmet Shop,Greek Restaurant,Lounge,Music Venue,Furniture / Home Store,Salad Place
57,Downtown Toronto,"Adelaide,King,Richmond",Richmond Hand Car Wash & Detailing,5d5ed8c63c6e63000740edb6,Car Wash,43.649427,-79.392417,0,Coffee Shop,Pizza Place,Restaurant,French Restaurant,Sporting Goods Shop,Yoga Studio,Soup Place,Furniture / Home Store,Beer Bar,Bookstore
58,West Toronto,"Runnymede,Swansea",Petro-Canada Car Wash,5a9cab07065ef5259c21d9d1,Car Wash,43.63616,-79.475334,0,Light Rail Station,Gas Station,Park,Gym / Fitness Center,Deli / Bodega,Farmers Market,Electronics Store,Ethiopian Restaurant,Event Space,Falafel Restaurant
59,West Toronto,"High Park,The Junction South",Jet Kleen Car Wash,4dbc450a4b222080d38d1dad,Automotive Shop,43.67207115275437,-79.46749630955917,0,Coffee Shop,Clothing Store,Grocery Store,Chinese Restaurant,Electronics Store,Beer Store,Restaurant,Liquor Store,Sandwich Place,Paper / Office Supplies Store
60,Downtown Toronto,"Chinatown,Grange Park,Kensington Market",U-Haul Neighborhood Dealer,590364670123587260a3cf71,Car Wash,43.652317,-79.402084,0,Café,Mexican Restaurant,Caribbean Restaurant,Bakery,Vegetarian / Vegan Restaurant,Belgian Restaurant,Bar,Cheese Shop,Farmers Market,Gourmet Shop
61,York,"Del Ray,Keelesdale,Mount Dennis,Silverthorn",Davinci Detailing Depot,4f3a809ae4b026b7f744bd0f,Car Wash,43.684188703955236,-79.48328366894417,0,Furniture / Home Store,Park,Grocery Store,Pub,Dumpling Restaurant,Eastern European Restaurant,Electronics Store,Ethiopian Restaurant,Event Space,Falafel Restaurant
62,East York,"Woodbine Gardens,Parkview Hill",Parkview Hills Car Spa,4ba3c241f964a520335c38e3,Automotive Shop,43.705025414827276,-79.31332474283943,0,Pizza Place,Intersection,Fast Food Restaurant,Café,Gastropub,Bank,Breakfast Spot,Pharmacy,Pet Store,Dance Studio
63,Etobicoke,"Kingsway Park South West,Mimico NW,The Queensway West,Royal York South West,South of Bloor",OLCO Queensway Carwash,4b5f6524f964a520d8b729e3,Car Wash,43.624258900077564,-79.5109224242214,0,Coffee Shop,BBQ Joint,American Restaurant,Restaurant,Fast Food Restaurant,Bar,Sushi Restaurant,Beer Store,Spa,Food Court
64,Etobicoke,"The Kingsway,Montgomery Road,Old Mill North",Petro-Canada,4e2312721495f18f035e5e05,Gas Station,43.660205,-79.51294,0,Toy / Game Store,Burger Joint,Spa,Pizza Place,Pet Store,Cupcake Shop,Coffee Shop,Shopping Mall,Lighting Store,French Restaurant
65,West Toronto,"Runnymede,Swansea",Petro-Canada,4d1e0a25dd6a236aad1b2338,Gas Station,43.63635388508989,-79.47546326286736,0,Light Rail Station,Gas Station,Park,Gym / Fitness Center,Deli / Bodega,Farmers Market,Electronics Store,Ethiopian Restaurant,Event Space,Falafel Restaurant
66,North York,Glencairn,Canadian Tire Gas+,4eafdc899a521bacdb725f1d,Gas Station,43.700508950663526,-79.45161374468023,0,Argentinian Restaurant,Coffee Shop,Sandwich Place,Discount Store,Paintball Field,Fast Food Restaurant,Clothing Store,Bakery,Bike Shop,Photography Lab
67,York,"The Junction North,Runnymede",Martino Bros. Car Wash,535279d6498eef77e3b94f72,Car Wash,43.6656,-79.4838,0,Coffee Shop,Pizza Place,Grocery Store,Liquor Store,Dive Bar,Thai Restaurant,Discount Store,Bakery,Bank,Athletics & Sports
68,North York,Victoria Village,Petro-Canada,4c02cd35f56c2d7fe6fa1b66,Gas Station,43.725905,-79.296675,0,Fast Food Restaurant,Clothing Store,Coffee Shop,Japanese Restaurant,Cosmetics Shop,Gym,Middle Eastern Restaurant,Shopping Mall,Sandwich Place,Supermarket
69,North York,"Downsview,North Park,Upwood Park",Petro-Canada,4cc89a5cd54fa1cdde933229,Gas Station,43.705891,-79.487841,0,Pizza Place,Athletics & Sports,Coffee Shop,Park,Dim Sum Restaurant,Supermarket,Grocery Store,Mediterranean Restaurant,Vietnamese Restaurant,Event Space
70,York,"Del Ray,Keelesdale,Mount Dennis,Silverthorn",Bizzy Boy Auto Detailers,518bca45498e1c05ba913df4,Car Wash,43.69964,-79.472484,0,Furniture / Home Store,Hardware Store,Portuguese Restaurant,Pet Service,Italian Restaurant,Fast Food Restaurant,Falafel Restaurant,Dumpling Restaurant,Eastern European Restaurant,Electronics Store
71,North York,"Downsview,North Park,Upwood Park",Keele Carwash Coin-Op,4f8d01d46b742e3bfcf42afc,Car Wash,43.7059027564556,-79.47715759277344,0,Portuguese Restaurant,Hobby Shop,Shopping Mall,Breakfast Spot,Supermarket,Big Box Store,Liquor Store,Sandwich Place,Restaurant,Bank
72,Etobicoke,Northwest,Petro-Canada,4d0cee3c257d6dcb5eed9867,Gas Station,43.719201,-79.603167,0,Coffee Shop,Bank,American Restaurant,Café,Theme Park,Casino,Fast Food Restaurant,Gas Station,Video Game Store,Restaurant
73,North York,Downsview Northwest,Petro-Canada,4b928449f964a5200c0034e3,Gas Station,43.78979,-79.545822,0,Burger Joint,Italian Restaurant,Sandwich Place,Bar,Movie Theater,Poutine Place,Pub,Beer Store,Furniture / Home Store,Steakhouse
74,Etobicoke,"Kingsview Village,Martin Grove Gardens,Richview Gardens,St. Phillips",Petro-Canada,4bc20ef62a89ef3b9121f388,Gas Station,43.690516,-79.574127,0,Hotel,Coffee Shop,Wings Joint,Sushi Restaurant,American Restaurant,Restaurant,Thai Restaurant,Mexican Restaurant,Breakfast Spot,Fast Food Restaurant
75,North York,"Northwood Park,York University",Petro-Pass Truck Stop,57f799f2498ecadc383b59c9,Gas Station,43.759525,-79.489949,0,Pizza Place,Big Box Store,Japanese Restaurant,Bar,Discount Store,Fast Food Restaurant,Sushi Restaurant,Furniture / Home Store,Bank,Filipino Restaurant
76,North York,Humber Summit,Petro-Canada,4e3451c8a8092599edf8be1c,Gas Station,43.759759,-79.590726,0,Bank,Residential Building (Apartment / Condo),Gas Station,BBQ Joint,Yoga Studio,Farmers Market,Electronics Store,Ethiopian Restaurant,Event Space,Falafel Restaurant
77,North York,"Northwood Park,York University",AAA AUTO SPA MOBILE CAR DETAILING,57c5d5ce498ec95b54afa201,Car Wash,43.78059136684751,-79.48710322380066,4,Vietnamese Restaurant,Italian Restaurant,Diner,Thai Restaurant,Electronics Store,Korean Restaurant,Music Store,Bus Stop,Chinese Restaurant,Sushi Restaurant
78,North York,Downsview West,Ecomobile Auto Spa,51eead7a498ea99f321f6e54,Car Wash,43.743056,-79.527732,0,Auto Garage,Golf Course,Bus Station,Furniture / Home Store,Theater,Yoga Studio,Farmers Market,Electronics Store,Ethiopian Restaurant,Event Space
79,North York,"Northwood Park,York University",Star Steam,510be4dae4b0b0ec5e4f6a33,Car Wash,43.784163,-79.477228,0,Clothing Store,Accessories Store,Shoe Store,Restaurant,Mexican Restaurant,Bath House,Caucasian Restaurant,Discount Store,Supermarket,Sandwich Place
80,Etobicoke,"Kingsway Park South West,Mimico NW,The Queensway West,Royal York South West,South of Bloor",Speedy Auto Service,4e56517ba809ca773dfe755e,Automotive Shop,43.63114627999663,-79.54612688068397,0,Fast Food Restaurant,Supermarket,Beer Store,Concert Hall,Gas Station,Restaurant,Baseball Field,Rental Car Location,Vietnamese Restaurant,Café
81,North York,"Northwood Park,York University",Steeles Car Wash,4f511a4be4b00ad2ab11bbc1,Car Wash,43.78252753120094,-79.48640786410006,0,Vietnamese Restaurant,Food,Music Store,Falafel Restaurant,Bus Stop,Diner,Sushi Restaurant,Italian Restaurant,Martial Arts Dojo,Thai Restaurant
82,Etobicoke,"Kingsway Park South West,Mimico NW,The Queensway West,Royal York South West,South of Bloor",Esso Touchless Car Wash,52ffa137498e9ccff8cb1526,Car Wash,43.62392584986219,-79.5156655639394,0,BBQ Joint,Restaurant,Coffee Shop,American Restaurant,Italian Restaurant,Movie Theater,Liquor Store,Sushi Restaurant,Event Space,Thrift / Vintage Store
83,North York,Humber Summit,Esso,5bfb242d1c0b34002cfb0366,Gas Station,43.769731,-79.548212,0,Italian Restaurant,Bridal Shop,Bank,Chinese Restaurant,Coffee Shop,Sandwich Place,Men's Store,Fish Market,Fish & Chips Shop,Flea Market
84,North York,Willowdale West,Autobahn,51aa1c51498e35a6097d7089,Car Wash,43.822732,-79.48359,0,Park,Fast Food Restaurant,Coffee Shop,Japanese Restaurant,Yoga Studio,Eastern European Restaurant,Electronics Store,Ethiopian Restaurant,Event Space,Falafel Restaurant
85,Etobicoke,"Albion Gardens,Beaumond Heights,Humbergate,Jamestown,Mount Olive,Silverstone,South Steeles,Thistletown",Canadian Tire Gas+,516499afe4b04a934b547361,Gas Station,43.74270475007968,-79.594644104551,0,Pizza Place,Coffee Shop,Grocery Store,Discount Store,Sandwich Place,Financial or Legal Service,Filipino Restaurant,Fish & Chips Shop,Fast Food Restaurant,Farmers Market
86,Etobicoke,Northwest,Popular Car Wash & Detailing - Free Vacuums,4ef5036b754ac34454590eb8,Car Wash,43.713492,-79.5824237,0,Burger Joint,Auto Workshop,Storage Facility,Coffee Shop,Gym,Sandwich Place,Gas Station,Yoga Studio,Event Space,Eastern European Restaurant
87,North York,Downsview Central,Canadian Tire Gas+,4fe92ec6e4b0a5a17c1033a9,Gas Station,43.725071,-79.481028,0,Vietnamese Restaurant,Filipino Restaurant,Gym / Fitness Center,Salon / Barbershop,Bank,Beer Store,Supermarket,New American Restaurant,Steakhouse,Thrift / Vintage Store
88,North York,"Bathurst Manor,Downsview North,Wilson Heights",Rambo - The Car Cleaning Experts,4fc8f99ae4b032a186903686,Car Wash,43.755837,-79.437241,0,Coffee Shop,Gas Station,Deli / Bodega,Fast Food Restaurant,Shopping Mall,Supermarket,Sushi Restaurant,Fried Chicken Joint,Frozen Yogurt Shop,Sandwich Place
89,Etobicoke,"Alderwood,Long Branch",Canadian Tire Gas+,4c2a82ecbbc7e21eb4613582,Gas Station,43.61664701012986,-79.54554508751781,0,Burger Joint,Hotel,Fast Food Restaurant,Hardware Store,Sandwich Place,Pizza Place,Furniture / Home Store,Climbing Gym,Middle Eastern Restaurant,Brewery
90,Mississauga,Canada Post Gateway Processing Centre,Petro-Canada,4d01605e2f03224bc11f60e2,Gas Station,43.627037,-79.631143,0,Coffee Shop,Pizza Place,Gym / Fitness Center,Middle Eastern Restaurant,Burger Joint,Fast Food Restaurant,Café,Gas Station,Sandwich Place,Caribbean Restaurant
91,Mississauga,Canada Post Gateway Processing Centre,Shell Car Wash,5c054216b77c77002c09f3b0,Car Wash,43.622384,-79.603437,0,Coffee Shop,Pizza Place,Skating Rink,Sandwich Place,Theater,Bank,Beer Store,Supermarket,Food Court,Breakfast Spot
92,Mississauga,Canada Post Gateway Processing Centre,GTA Pressure Cleaning & Restoration,50ad3e55e4b08e127b417964,Car Wash,43.666620678507925,-79.67120800013844,0,Italian Restaurant,Food Service,Business Service,Health Food Store,Flea Market,Fish Market,Fish & Chips Shop,Flower Shop,Financial or Legal Service,Dumpling Restaurant
93,Mississauga,Canada Post Gateway Processing Centre,Ovation Car Wash,4fa7423fe4b0e7038ca31501,Car Wash,43.587889628610654,-79.64116155375625,0,Café,Italian Restaurant,Electronics Store,Clothing Store,Deli / Bodega,Performing Arts Venue,Accessories Store,Coffee Shop,Sports Bar,Scenic Lookout
94,Etobicoke,"Alderwood,Long Branch",Valet Car Wash,51a3898c498e796163a60cf3,Car Wash,43.58897660073301,-79.5924717549748,0,Breakfast Spot,Coffee Shop,Restaurant,Arts & Crafts Store,Bakery,Nightclub,Fish Market,Fish & Chips Shop,Flea Market,Financial or Legal Service
95,Mississauga,Canada Post Gateway Processing Centre,Petro Car Wash,4dd80b83e4cd37c893bb6539,Car Wash,43.626756,-79.630059,0,Coffee Shop,Pizza Place,Gym / Fitness Center,Caribbean Restaurant,Sandwich Place,Café,Fast Food Restaurant,Burger Joint,Soup Place,Gas Station
96,Etobicoke,"Alderwood,Long Branch",24 Hrs. Car Wash,5341a406498e89a4e2f3c775,Car Wash,43.58659531155124,-79.54879978829246,0,Park,Dog Run,Vietnamese Restaurant,Motel,Eastern European Restaurant,Electronics Store,Ethiopian Restaurant,Event Space,Falafel Restaurant,Farmers Market
97,Mississauga,Canada Post Gateway Processing Centre,Soap &  Suds,5751c9aa498e15594b182d99,Car Wash,43.591938,-79.6357,0,Coffee Shop,Sandwich Place,Bar,Indian Restaurant,Bakery,Gas Station,Bank,Lounge,Steakhouse,Bookstore
98,Mississauga,Canada Post Gateway Processing Centre,Esso Self Service Car Wash,4da083e5e8a6721eef6c39a5,Car Wash,43.60113400909023,-79.63339203141408,3,Park,Coffee Shop,Farmers Market,Video Game Store,Yoga Studio,Eastern European Restaurant,Electronics Store,Ethiopian Restaurant,Event Space,Falafel Restaurant
99,North York,"Emery,Humberlea",Wilson Car Wash,4ee503af722ea7b945b6db2d,Automotive Shop,43.715880448264286,-79.52642617501108,0,Furniture / Home Store,Gift Shop,Bakery,Skating Rink,Fast Food Restaurant,Electronics Store,Ethiopian Restaurant,Event Space,Falafel Restaurant,Farmers Market
100,Etobicoke,Northwest,Greenage Car Wash,50e74f64e4b0531acf5b1715,Car Wash,43.6965441346506,-79.63124802988281,0,Automotive Shop,Coffee Shop,Scenic Lookout,Gas Station,Rental Car Location,Diner,Fast Food Restaurant,Sandwich Place,IT Services,Filipino Restaurant
101,Etobicoke,"Alderwood,Long Branch",Petro Canada Car Wash,58cc148514fb41604232c278,Car Wash,43.61696,-79.54616,0,Furniture / Home Store,Hardware Store,Sandwich Place,Burger Joint,Hobby Shop,Shopping Plaza,Bakery,Liquor Store,Storage Facility,Breakfast Spot
102,Etobicoke,"Humber Bay Shores,Mimico South,New Toronto",Original Six Car Wash,4d56ddd6fb65236a88390bb4,Car Wash,43.60329569884899,-79.51892682188588,3,Breakfast Spot,Pool,Coffee Shop,Skating Rink,Filipino Restaurant,Electronics Store,Ethiopian Restaurant,Event Space,Falafel Restaurant,Farmers Market
103,Etobicoke,"Alderwood,Long Branch",Mississauga Kar Kare,4b51d59cf964a5204f5727e3,Automotive Shop,43.58872478168298,-79.59275153019107,0,Breakfast Spot,Coffee Shop,Restaurant,Arts & Crafts Store,Bakery,Nightclub,Fish Market,Fish & Chips Shop,Flea Market,Financial or Legal Service
104,York,Weston,Weston Coin Car Wash,4becab5a8bbcc9283ca98cb1,Car Wash,43.7086000109898,-79.5342762282257,0,Grocery Store,Fast Food Restaurant,Sandwich Place,Japanese Restaurant,Bank,Bakery,Beer Store,Supplement Shop,Auto Garage,Gym
105,Etobicoke,"Kingsway Park South West,Mimico NW,The Queensway West,Royal York South West,South of Bloor",Sparkle Kleen Car Wash,55a80bdd498ed75377125d41,Car Wash,43.632926,-79.543317,0,Fast Food Restaurant,Turkish Restaurant,Women's Store,Thai Restaurant,Greek Restaurant,Vietnamese Restaurant,Sandwich Place,Fried Chicken Joint,Restaurant,Café
106,Etobicoke,"Bloordale Gardens,Eringate,Markland Wood,Old Burnhamthorpe",Upscale Car Detailing Service,4ffef9438302e63b3273dd76,Car Wash,43.64529724280223,-79.56533874760432,0,Hotel,Coffee Shop,Farmers Market,Café,Bank,Theater,Grocery Store,Gym,Transportation Service,Clothing Store
107,Etobicoke,"Alderwood,Long Branch",Popular Car Wash & Detailing - FREE VACUUMS,4e2ad147d22d3f83c887b668,Car Wash,43.619796753,-79.562225342,0,Furniture / Home Store,Shoe Store,Women's Store,Pet Store,Sporting Goods Shop,Gift Shop,Pool Hall,Hardware Store,Discount Store,Arts & Crafts Store
108,Scarborough,"Clarks Corners,Sullivan,Tam O'Shanter",Petro-Canada,4b9fa7def964a5201d3237e3,Gas Station,43.782892,-79.288497,0,Fast Food Restaurant,Grocery Store,Hobby Shop,Train Station,Spa,Market,Big Box Store,Beer Store,Sandwich Place,Cantonese Restaurant
109,Scarborough,"Highland Creek,Rouge Hill,Port Union",Petro-Canada,4b5aedfff964a520c2da28e3,Gas Station,43.84784,-79.073237,0,Clothing Store,Mexican Restaurant,Men's Store,Toy / Game Store,Fast Food Restaurant,Burger Joint,Sandwich Place,Caribbean Restaurant,Liquor Store,Lingerie Store
110,Scarborough,Upper Rouge,PetroCan Touchless Car Wash,4fa16808e4b0ac13aec1a22f,Car Wash,43.87131478841214,-79.26691537410922,0,Steakhouse,Pharmacy,Gas Station,Grocery Store,Beer Store,Discount Store,Bank,Japanese Restaurant,Sandwich Place,Indian Restaurant
111,Scarborough,"Highland Creek,Rouge Hill,Port Union",Canadian Tire Gas+,4b37b3bff964a520aa4425e3,Gas Station,43.84210294953461,-79.07030940055846,0,Discount Store,Pizza Place,Liquor Store,Breakfast Spot,Sandwich Place,Men's Store,Furniture / Home Store,Fruit & Vegetable Store,Hardware Store,Coffee Shop
112,Scarborough,"Dorset Park,Scarborough Town Centre,Wexford Heights",Scarwash Auto Detailing,504a1695e4b0dd0b0d8192d1,Car Wash,43.764826,-79.285895,0,Fast Food Restaurant,Pizza Place,Coffee Shop,Food & Drink Shop,Sri Lankan Restaurant,Electronics Store,Middle Eastern Restaurant,Grocery Store,Gymnastics Gym,Mexican Restaurant
113,Scarborough,"Agincourt North,L'Amoreaux East,Milliken,Steeles East",Mr.Steam Car Wash,4d14be3681cea35da25cd5ec,Car Wash,43.870199,-79.277937,4,Cantonese Restaurant,Peruvian Restaurant,Greek Restaurant,Rental Car Location,Shopping Mall,Shop & Service,Bakery,Chinese Restaurant,Ethiopian Restaurant,Donut Shop
114,Scarborough,"Guildwood,Morningside,West Hill",24/7 Galloway Car Wash,55008a13498e43c314c23e9c,Car Wash,43.76096,-79.194511,0,Convenience Store,Rental Car Location,Thrift / Vintage Store,Bakery,Moving Target,Fish & Chips Shop,Financial or Legal Service,Filipino Restaurant,Fast Food Restaurant,Farmers Market
115,Scarborough,"Agincourt North,L'Amoreaux East,Milliken,Steeles East",Esso  Touchless Car Wash,5144fb20e4b0dfd2d17f542e,Car Wash,43.83491897583008,-79.25656127929688,0,Pizza Place,Hakka Restaurant,Spa,Fast Food Restaurant,Big Box Store,Liquor Store,Sandwich Place,Bubble Tea Shop,Greek Restaurant,Juice Bar
116,Scarborough,Upper Rouge,Petro Canada Car Wash,52b38ca7498e100cd74f48a5,Car Wash,43.89689289709923,-79.23854303207723,0,Sports Club,Bank,Dumpling Restaurant,Electronics Store,Ethiopian Restaurant,Event Space,Falafel Restaurant,Farmers Market,Fast Food Restaurant,Filipino Restaurant
117,Scarborough,"Agincourt North,L'Amoreaux East,Milliken,Steeles East",Discount Car Wash,4c5dab18d25320a140a6c67a,Car Wash,43.8719920952024,-79.27796369302804,4,BBQ Joint,Chinese Restaurant,Gym,Liquor Store,Rental Car Location,Shop & Service,Dumpling Restaurant,Eastern European Restaurant,Electronics Store,Ethiopian Restaurant
118,Scarborough,"Agincourt North,L'Amoreaux East,Milliken,Steeles East",Shell Car Wash,56f8173b498e96912b7e2e54,Car Wash,43.818002,-79.303592,4,Hong Kong Restaurant,Chinese Restaurant,Baseball Field,Tattoo Parlor,Bakery,Grocery Store,Food & Drink Shop,Pet Store,Pizza Place,Dance Studio
119,Scarborough,"Rouge,Malvern",Super Wash - PetroCanada,59c724272079556b58069945,Car Wash,43.78601,-79.1942,0,Mediterranean Restaurant,Restaurant,Fried Chicken Joint,Gas Station,Yoga Studio,Farmers Market,Electronics Store,Ethiopian Restaurant,Event Space,Falafel Restaurant
120,Scarborough,"Agincourt North,L'Amoreaux East,Milliken,Steeles East",EE Auto Group,518facbc498e91f3bf6d3d0a,Car Wash,43.87705770619646,-79.27493062716724,0,Park,Design Studio,Athletics & Sports,Gym Pool,BBQ Joint,Fish Market,Fish & Chips Shop,Financial or Legal Service,Flea Market,Filipino Restaurant
121,Scarborough,L'Amoreaux West,Shell Car Wash,58cd95604bafb746486c93cc,Car Wash,43.792618,-79.33056,0,Convenience Store,Breakfast Spot,Bakery,Gas Station,Chinese Restaurant,Fast Food Restaurant,Beer Store,Coffee Shop,Bus Station,Burger Joint
122,Scarborough,Cedarbrae,High Octane Car Wash,51850098498ed380ad272e52,Car Wash,43.7822984939488,-79.23517793466718,0,Hotel,Coffee Shop,Steakhouse,Bistro,Fast Food Restaurant,Gas Station,Sandwich Place,Sporting Goods Shop,Department Store,Food
123,Scarborough,"Highland Creek,Rouge Hill,Port Union",Petro-Pass Truck Stop,5a9d956dc9f90707b4aa129a,Gas Station,43.834051,-79.076913,0,Playground,Bar,Gym,Golf Course,Fish Market,Fish & Chips Shop,Financial or Legal Service,Filipino Restaurant,Fast Food Restaurant,Donut Shop
124,Scarborough,Upper Rouge,Petro Car Wash,4f3bf36ae4b0637758a6fc1c,Car Wash,43.871314,-79.266649,0,Steakhouse,Pharmacy,Gas Station,Grocery Store,Beer Store,Discount Store,Bank,Japanese Restaurant,Sandwich Place,Indian Restaurant
125,Scarborough,"Agincourt North,L'Amoreaux East,Milliken,Steeles East",Canadian Tire Gas+,4c64c59b772bef3be9b9c2aa,Gas Station,43.872585515035894,-79.28530443389455,0,Fast Food Restaurant,Shopping Mall,Coffee Shop,Clothing Store,Pharmacy,Gym,Liquor Store,Sandwich Place,Tea Room,Dessert Shop
126,Scarborough,"Dorset Park,Scarborough Town Centre,Wexford Heights",Midland Car Wash & Detailing,4f391a0fe4b0a1f1988c3ee2,Car Wash,43.75558,-79.26655,4,Pizza Place,Fried Chicken Joint,Bank,Light Rail Station,Chinese Restaurant,Park,Bakery,Pharmacy,Fish & Chips Shop,Fish Market
127,Scarborough,"Agincourt North,L'Amoreaux East,Milliken,Steeles East",Car Insanity,56614edd498e16a3d2aa1fa1,Car Wash,43.87296,-79.28092,0,Rental Car Location,BBQ Joint,Liquor Store,Grocery Store,Gym,Design Studio,Shop & Service,Yoga Studio,Event Space,Eastern European Restaurant
128,Downtown Toronto,"CN Tower,Bathurst Quay,Island airport,Harbourfront West,King and Spadina,Railway Lands,South Niagara",Coin Op Carwash,5132672fe4b054cc6df01ed6,Car Wash,43.633799551283424,-79.3980015268763,0,Coffee Shop,Harbor / Marina,Airport Lounge,Airport Service,Airport Terminal,Grocery Store,Tunnel,Sculpture Garden,Café,Dog Run
129,Mississauga,Canada Post Gateway Processing Centre,Petro-Canada,4bd9f0c62a3a0f47f7fda8b6,Gas Station,43.563786,-79.636401,0,Pizza Place,Hardware Store,Sandwich Place,Grocery Store,Gym,Restaurant,Flea Market,Indian Restaurant,Falafel Restaurant,Donut Shop
130,Mississauga,Canada Post Gateway Processing Centre,24 Hrs. Car Wash,4bee355da40fc9288d39830c,Car Wash,43.56559038824108,-79.63416517547822,0,Sandwich Place,Grocery Store,Pizza Place,Hardware Store,Liquor Store,Flea Market,Gym,Restaurant,Indian Restaurant,Dance Studio
131,Mississauga,Canada Post Gateway Processing Centre,Kingsmere Car Wash,51a25400498e9de81dcb4b39,Car Wash,43.562043738611415,-79.63725768547404,0,Sandwich Place,Pizza Place,Indian Restaurant,Gym / Fitness Center,Falafel Restaurant,Donut Shop,Dumpling Restaurant,Eastern European Restaurant,Electronics Store,Ethiopian Restaurant
132,Mississauga,Canada Post Gateway Processing Centre,Circle K,5a9c55b626659b1ccd6f644c,Car Wash,43.625699,-79.679401,3,Coffee Shop,Hotel,Sandwich Place,Gas Station,Office,Fast Food Restaurant,Mexican Restaurant,Indian Restaurant,Historic Site,Hockey Arena
133,Mississauga,Canada Post Gateway Processing Centre,Dennys 24hrs Car Wash,51c8e023498ef6a4accd4694,Car Wash,43.57384845289323,-79.64451699083723,0,Fast Food Restaurant,Vietnamese Restaurant,Food & Drink Shop,Coffee Shop,Gas Station,Portuguese Restaurant,Supermarket,Bubble Tea Shop,Fish & Chips Shop,Financial or Legal Service
134,Mississauga,Canada Post Gateway Processing Centre,Petro-Pass Truck Stop,4da112117ccc816e7a554b7b,Gas Station,43.681118,-79.683079,3,Bus Stop,Baseball Field,Coffee Shop,Gas Station,Filipino Restaurant,Ethiopian Restaurant,Event Space,Falafel Restaurant,Farmers Market,Fast Food Restaurant
135,Mississauga,Canada Post Gateway Processing Centre,Shell Car Wash,56f4179e498e93a5ec6c1127,Car Wash,43.619519,-79.66876,4,Supermarket,Indian Restaurant,Chinese Restaurant,Fast Food Restaurant,Sandwich Place,Italian Restaurant,Bank,Afghan Restaurant,Fish Market,Fish & Chips Shop
136,Scarborough,"Highland Creek,Rouge Hill,Port Union",Pete's Car Wash,4e5fc9481838d10f59518c6e,Car Wash,43.79928380631836,-79.14391458034514,0,Coffee Shop,Sandwich Place,Breakfast Spot,Pub,Mobile Phone Shop,Fast Food Restaurant,Fried Chicken Joint,Gas Station,Bakery,Grocery Store
137,Scarborough,"Dorset Park,Scarborough Town Centre,Wexford Heights",EE Auto Group,5b1aa51b1fa763002cf54662,Car Wash,43.757644,-79.275789,4,Indian Restaurant,Electronics Store,Pet Store,Vietnamese Restaurant,Chinese Restaurant,Fast Food Restaurant,Yoga Studio,Farmers Market,Eastern European Restaurant,Ethiopian Restaurant
138,North York,Willowdale West,SuperWorks Car Wash,4c2b45412219c928df46a448,Car Wash,43.79271683595736,-79.4458280951307,4,Coffee Shop,Chinese Restaurant,Bagel Shop,Pharmacy,Middle Eastern Restaurant,Grocery Store,Discount Store,Doner Restaurant,Sandwich Place,Fast Food Restaurant
139,Mississauga,Canada Post Gateway Processing Centre,Petro-Canada,4ba115b0f964a520469637e3,Gas Station,43.579394,-79.652447,0,Bubble Tea Shop,Fast Food Restaurant,Indian Restaurant,Dessert Shop,Noodle House,Yoga Studio,Coffee Shop,Burger Joint,Filipino Restaurant,Seafood Restaurant
140,Mississauga,Canada Post Gateway Processing Centre,Petro-Canada,4c6f35e9df6b8cfa6eb2b44d,Gas Station,43.66893,-79.738164,0,Pizza Place,Fast Food Restaurant,Clothing Store,Supermarket,Beer Store,Shopping Mall,Bus Station,Bus Stop,Sandwich Place,Candy Store
141,Mississauga,Canada Post Gateway Processing Centre,Super Wash (Petro Canada),51c8da79498e432886f7e1d2,Car Wash,43.57326367726666,-79.6581183894915,0,Fast Food Restaurant,Hotpot Restaurant,Bank,Sandwich Place,Food & Drink Shop,Supermarket,Furniture / Home Store,Mediterranean Restaurant,Vietnamese Restaurant,Indian Restaurant
142,Mississauga,Canada Post Gateway Processing Centre,auto salon,4f45220fe4b09357802dd6fe,Car Wash,43.647588343453705,-79.7077205599376,0,Hotel,Coffee Shop,Greek Restaurant,Restaurant,Diner,Vegetarian / Vegan Restaurant,Fast Food Restaurant,Wings Joint,BBQ Joint,Fish & Chips Shop
143,Mississauga,Canada Post Gateway Processing Centre,Superglide Carwash,52f640e3498e00dec25eeb6b,Car Wash,43.6365966796875,-79.71487426757812,0,Breakfast Spot,Coffee Shop,Sandwich Place,Gas Station,Bank,Fried Chicken Joint,Burger Joint,Supermarket,Discount Store,Grocery Store
144,Mississauga,Canada Post Gateway Processing Centre,Superwash,51e409bd498ec9be3bf621cd,Car Wash,43.57969665527344,-79.65270233154297,0,Bubble Tea Shop,Fast Food Restaurant,Indian Restaurant,Noodle House,Dessert Shop,Yoga Studio,Grocery Store,Burger Joint,Seafood Restaurant,Electronics Store
145,Mississauga,Canada Post Gateway Processing Centre,Victory Car Wash,4f9176d1e4b0277c98c2d860,Car Wash,43.66281383939036,-79.73096401357355,0,Accessories Store,Coffee Shop,Bus Station,Sporting Goods Shop,Fast Food Restaurant,Supermarket,Restaurant,Lawyer,Chinese Restaurant,Grocery Store
146,Downtown Toronto,Church and Wellesley,Shell Car Wash,5a8f410a47f8761262a97865,Car Wash,43.665685,-79.383914,0,Burger Joint,Coffee Shop,Sushi Restaurant,Bookstore,Breakfast Spot,Bubble Tea Shop,Salon / Barbershop,Restaurant,Ramen Restaurant,Pub
147,North York,"Fairview,Henry Farm,Oriole",Parkway Car Wash,4c76fa5ff24737044cc464eb,Car Wash,43.77512962143206,-79.3389343948576,4,Japanese Restaurant,Fast Food Restaurant,Shopping Mall,Chinese Restaurant,Sporting Goods Shop,Department Store,Salon / Barbershop,Sandwich Place,Grocery Store,Asian Restaurant
148,York,"The Junction North,Runnymede",Petro-Canada,5831e764dc33297bf0c0f6d5,Car Wash,43.6689425842313,-79.48336958885193,0,Park,Sandwich Place,Bus Line,Pizza Place,Coffee Shop,Convenience Store,Grocery Store,Burger Joint,Fried Chicken Joint,Rental Car Location
149,West Toronto,"High Park,The Junction South",Crosstown Car Wash,4b6dc1dff964a520f28c2ce3,Car Wash,43.665357074054704,-79.47623491287231,0,Coffee Shop,Bar,Deli / Bodega,Nail Salon,Breakfast Spot,Italian Restaurant,Bus Line,Cajun / Creole Restaurant,Bakery,Burger Joint
150,North York,Willowdale South,Mr. Shine,51421dcde4b013872b91e03f,Car Wash,43.76853,-79.412703,0,Ramen Restaurant,Café,Coffee Shop,Steakhouse,Japanese Restaurant,Plaza,Juice Bar,Sushi Restaurant,Movie Theater,Fried Chicken Joint
151,Etobicoke,"Kingsway Park South West,Mimico NW,The Queensway West,Royal York South West,South of Bloor",Soft Cloth Car Wash,51f6e54d498e0623584ad4f5,Car Wash,43.632999420166016,-79.54328155517578,0,Fast Food Restaurant,Turkish Restaurant,Women's Store,Thai Restaurant,Greek Restaurant,Vietnamese Restaurant,Sandwich Place,Fried Chicken Joint,Restaurant,Café
152,Scarborough,"Agincourt North,L'Amoreaux East,Milliken,Steeles East",Petro-Canada,4e8673ded66a9b178e90e290,Gas Station,43.863166,-79.303335,4,Chinese Restaurant,Cantonese Restaurant,Gas Station,Cha Chaan Teng,Dessert Shop,Japanese Restaurant,Beer Store,Bank,Bakery,Seafood Restaurant
153,North York,Hillcrest Village,Petro-Canada,4b6dadf7f964a520b2852ce3,Gas Station,43.875654,-79.415707,0,Fast Food Restaurant,Sandwich Place,Coffee Shop,Taco Place,Gas Station,Diner,Shoe Store,Kebab Restaurant,Kids Store,Korean Restaurant
154,North York,"Newtonbrook,Willowdale",Superwash,5dd35483b53c9a00088f25b8,Car Wash,43.860565,-79.435646,0,Bakery,Pharmacy,Vietnamese Restaurant,Chinese Restaurant,Middle Eastern Restaurant,Mini Golf,Sandwich Place,Supermarket,Restaurant,Sushi Restaurant
155,North York,Hillcrest Village,Petro-Canada Car Wash,5b6f026ff193c0002cc8f3ae,Car Wash,43.844542,-79.40822,0,Coffee Shop,Pizza Place,Asian Restaurant,Spa,Furniture / Home Store,Sandwich Place,Salon / Barbershop,Gas Station,Grocery Store,Gym
156,North York,Hillcrest Village,ESSO Car Wash,4e0b8f7b52b1fe83d54e6531,Car Wash,43.851501753750654,-79.40784696706795,4,Pharmacy,Supermarket,Bank,Korean Restaurant,Chinese Restaurant,Shopping Mall,Bakery,Financial or Legal Service,Fish & Chips Shop,Filipino Restaurant
157,North York,Hillcrest Village,Esso Car Wash,50eaf425e4b0f090d2c350c2,Car Wash,43.86867892626581,-79.36179361958985,0,Japanese Restaurant,Bakery,Mattress Store,Cha Chaan Teng,Supermarket,Bank,Candy Store,Gift Shop,Greek Restaurant,Sporting Goods Shop
158,North York,"Newtonbrook,Willowdale",Canadian Tire Gas+,4c97f89fb6ee236adc73a4a7,Gas Station,43.842760691911444,-79.4312596321106,0,Coffee Shop,Cosmetics Shop,Italian Restaurant,Restaurant,Furniture / Home Store,Park,Pub,Pharmacy,Sandwich Place,BBQ Joint
159,North York,Downsview Northwest,Canadian Tire Gas+,52476d1611d2f0c96383bca8,Gas Station,43.829821180837406,-79.53869819641113,0,Clothing Store,Coffee Shop,Breakfast Spot,Italian Restaurant,Japanese Restaurant,Mexican Restaurant,Sporting Goods Shop,Steakhouse,Camera Store,Caribbean Restaurant
160,North York,Humber Summit,Petro-Canada,4d3b3fdf979ea1437db299fc,Gas Station,43.783622,-79.567984,0,Italian Restaurant,Fast Food Restaurant,Burger Joint,Bakery,Restaurant,Bowling Alley,Steakhouse,Japanese Restaurant,Diner,Gym / Fitness Center
161,North York,Downsview Northwest,Esso Touchless Car Wash,582116b11dbf6c7a75f40fd7,Car Wash,43.82768,-79.552364,0,Fast Food Restaurant,Pharmacy,Coffee Shop,Italian Restaurant,Breakfast Spot,Martial Arts Dojo,Sushi Restaurant,Restaurant,BBQ Joint,Grocery Store
162,North York,Downsview Northwest,ECO GREEN AUTO SPA,544b10f0498eeacb33622918,Car Wash,43.80806843345028,-79.53738927841187,4,Women's Store,Outdoor Supply Store,Yoga Studio,Fast Food Restaurant,Eastern European Restaurant,Electronics Store,Ethiopian Restaurant,Event Space,Falafel Restaurant,Farmers Market
163,North York,Humber Summit,Petro-Canada,4e8673fcd66a9b178e91230e,Gas Station,43.790747,-79.626874,3,Coffee Shop,Mediterranean Restaurant,Gas Station,Gym,Event Space,Supermarket,American Restaurant,Thai Restaurant,Mobile Phone Shop,Financial or Legal Service
164,North York,Willowdale West,ESSO NEW Touchless Car Wash,4e21c2431838712abe7549a7,Car Wash,43.80943047659161,-79.4591460817044,0,Sandwich Place,Cosmetics Shop,Coffee Shop,Bus Station,Mediterranean Restaurant,Burger Joint,Market,Spa,Gym,Furniture / Home Store
165,North York,Humber Summit,Canadian Tire Gas+,4e41d376d22d38bfd45cee64,Gas Station,43.77654451613014,-79.60489623292713,4,Auto Dealership,Coffee Shop,Fast Food Restaurant,Ice Cream Shop,Fried Chicken Joint,Shopping Mall,American Restaurant,Italian Restaurant,Chinese Restaurant,Sushi Restaurant
166,Etobicoke,"Albion Gardens,Beaumond Heights,Humbergate,Jamestown,Mount Olive,Silverstone,South Steeles,Thistletown",Petro-Pass Truck Stop,57f54b9e498ed27f8c178378,Gas Station,43.731407,-79.67832,3,Coffee Shop,Yoga Studio,Filipino Restaurant,Electronics Store,Ethiopian Restaurant,Event Space,Falafel Restaurant,Farmers Market,Fast Food Restaurant,Financial or Legal Service
167,Etobicoke,"Albion Gardens,Beaumond Heights,Humbergate,Jamestown,Mount Olive,Silverstone,South Steeles,Thistletown",Nanak Car Wash,51ebf409498e68dc2ff32028,Car Wash,43.7368,-79.6038,0,Sandwich Place,Coffee Shop,Fast Food Restaurant,Electronics Store,Greek Restaurant,Café,Thrift / Vintage Store,Chinese Restaurant,Italian Restaurant,Pet Store
168,Etobicoke,Northwest,Car Wash,52485dbf498e8d3af3ffbd70,Car Wash,43.7197,-79.692,0,Business Service,Flea Market,Athletics & Sports,Gastropub,Yoga Studio,Electronics Store,Ethiopian Restaurant,Event Space,Falafel Restaurant,Farmers Market
169,Etobicoke,Northwest,Blue Wave Car Wash,518d5eaf498ee1e70678730c,Car Wash,43.71494998803069,-79.58670051273252,0,Gym,Home Service,Electronics Store,Gas Station,Yoga Studio,Farmers Market,Eastern European Restaurant,Ethiopian Restaurant,Event Space,Falafel Restaurant
170,Etobicoke,"Albion Gardens,Beaumond Heights,Humbergate,Jamestown,Mount Olive,Silverstone,South Steeles,Thistletown",Petro-Canada,4c9288e01221b1f7225e12e2,Gas Station,43.80288338228464,-79.66896075690569,2,Department Store,Yoga Studio,Filipino Restaurant,Electronics Store,Ethiopian Restaurant,Event Space,Falafel Restaurant,Farmers Market,Fast Food Restaurant,Financial or Legal Service
171,Etobicoke,"Albion Gardens,Beaumond Heights,Humbergate,Jamestown,Mount Olive,Silverstone,South Steeles,Thistletown",Northwest Toyota,4c9b6e82db10b60c4e199b6d,Auto Dealership,43.74626534303083,-79.6939705007545,0,Breakfast Spot,Diner,Sandwich Place,Furniture / Home Store,Arts & Crafts Store,Pizza Place,Coffee Shop,Office,Restaurant,Salon / Barbershop
172,East Toronto,The Beaches,Dawes Road Coin Car Wash,4fc24ba9e4b05b85036e6f4c,Car Wash,43.688472,-79.297455,0,Coffee Shop,Pharmacy,Bus Line,Ice Cream Shop,Mexican Restaurant,Sushi Restaurant,French Restaurant,Baseball Field,Furniture / Home Store,Sandwich Place
173,North York,Hillcrest Village,Shell,4c545bd44623be9a6963a8f2,Gas Station,43.89933033029736,-79.44310426712036,3,Coffee Shop,Shipping Store,Arts & Crafts Store,Gym,Thrift / Vintage Store,Mattress Store,Auto Dealership,Fast Food Restaurant,Gas Station,Electronics Store
174,East Toronto,"The Beaches West,India Bazaar",Coin-Op Car Wash,4d8f9335ca75b60cab9517a9,Car Wash,43.667416,-79.313066,0,Park,Pizza Place,Burrito Place,Sandwich Place,Fruit & Vegetable Store,Sushi Restaurant,French Restaurant,Liquor Store,Fish & Chips Shop,Bakery
175,Central Toronto,"The Annex,North Midtown,Yorkville",Dupont Auto Spa,5143b385e4b068967c7e8c5f,Car Wash,43.674,-79.4104,0,Sandwich Place,Vegetarian / Vegan Restaurant,Café,Burger Joint,Latin American Restaurant,Steakhouse,Liquor Store,Sports Bar,Middle Eastern Restaurant,Modern European Restaurant
176,North York,Hillcrest Village,Pro Auto Car Wash,4c4880d41ddec92836c6a032,Car Wash,43.822246,-79.395378,0,Pizza Place,Coffee Shop,Thrift / Vintage Store,Gym,Gym / Fitness Center,Greek Restaurant,Cosmetics Shop,Cupcake Shop,Falafel Restaurant,Dumpling Restaurant
177,Etobicoke,"Alderwood,Long Branch",Circle K Esso Touchless Car Wash,5a63ea1116fa04022313ec23,Car Wash,43.609557,-79.582592,0,Fast Food Restaurant,Thrift / Vintage Store,Coffee Shop,Discount Store,Restaurant,Korean Restaurant,Grocery Store,Big Box Store,Bank,Fried Chicken Joint
178,Mississauga,Canada Post Gateway Processing Centre,Canadian Tire Gas+,50a71a59e4b078584f7c684c,Gas Station,43.61142946369679,-79.69560889305653,0,Chinese Restaurant,Clothing Store,Coffee Shop,Ice Cream Shop,Indian Restaurant,Electronics Store,Kids Store,Bakery,Donut Shop,Beer Bar
179,Mississauga,Canada Post Gateway Processing Centre,Kennedy Coin-Op Car Wash,5048b0bbe4b0f7c26eae0d43,Car Wash,43.685539,-79.736257,4,Indian Restaurant,Bakery,Coffee Shop,Chinese Restaurant,Yoga Studio,Fast Food Restaurant,Electronics Store,Ethiopian Restaurant,Event Space,Falafel Restaurant
180,Mississauga,Canada Post Gateway Processing Centre,Superwork Car Wash,54a13105498e5892fbba66fd,Car Wash,43.59418851522341,-79.71068453205633,0,Gas Station,Sandwich Place,Chinese Restaurant,Golf Course,Grocery Store,Gym / Fitness Center,Park,Asian Restaurant,Donut Shop,Dumpling Restaurant
181,Mississauga,Canada Post Gateway Processing Centre,The Detail Pros,50119e14e4b05edd99e7398d,Car Wash,43.6879013,-79.73911059999999,4,Indian Restaurant,Furniture / Home Store,Athletics & Sports,Chinese Restaurant,Coffee Shop,Bakery,Fast Food Restaurant,Electronics Store,Ethiopian Restaurant,Event Space
182,Scarborough,"Agincourt North,L'Amoreaux East,Milliken,Steeles East",Petro-Canada,4cc8f6b16fbc199c88de617d,Gas Station,43.903358,-79.292609,1,Japanese Restaurant,Martial Arts Dojo,Gas Station,Bus Stop,Ethiopian Restaurant,Event Space,Falafel Restaurant,Farmers Market,Fast Food Restaurant,Filipino Restaurant
183,Scarborough,"Agincourt North,L'Amoreaux East,Milliken,Steeles East",Petro-Canada Car Wash,59a1b517135b395e9d00586d,Car Wash,43.903434,-79.292764,1,Japanese Restaurant,Martial Arts Dojo,Gas Station,Bus Stop,Ethiopian Restaurant,Event Space,Falafel Restaurant,Farmers Market,Fast Food Restaurant,Filipino Restaurant
184,Scarborough,Upper Rouge,Mount Joy Car Wash,4bf9dcef5317a5932c01027f,Car Wash,43.90108593652553,-79.26354061530562,0,Pizza Place,Beer Store,Café,Liquor Store,Furniture / Home Store,Frozen Yogurt Shop,Pharmacy,Cosmetics Shop,Fish & Chips Shop,Financial or Legal Service
185,Scarborough,"Agincourt North,L'Amoreaux East,Milliken,Steeles East",Touchless Car Wash,51826ada498ef750e88c0126,Car Wash,43.90320476723645,-79.29228626750475,1,Japanese Restaurant,Martial Arts Dojo,Gas Station,Bus Stop,Ethiopian Restaurant,Event Space,Falafel Restaurant,Farmers Market,Fast Food Restaurant,Filipino Restaurant
186,Etobicoke,"Alderwood,Long Branch",Canadian Tire Gas+,4cef2ff20acea35dc43aedae,Gas Station,43.60424633015255,-79.58867311477661,0,Vietnamese Restaurant,Fast Food Restaurant,BBQ Joint,Department Store,Korean Restaurant,Sandwich Place,Light Rail Station,Supermarket,Laser Tag,Portuguese Restaurant
187,Etobicoke,Northwest,In 'N Out Coin Wash,4f67be6ae4b037b43e46c413,Car Wash,43.723058,-79.718145,0,Convenience Store,Café,Bar,Gas Station,Pub,Yoga Studio,Farmers Market,Ethiopian Restaurant,Event Space,Falafel Restaurant
188,Etobicoke,"Albion Gardens,Beaumond Heights,Humbergate,Jamestown,Mount Olive,Silverstone,South Steeles,Thistletown",In N Out Car Wash,4c0bb886340720a160798893,Car Wash,43.754805117030365,-79.70948471043171,3,Dance Studio,Coffee Shop,Gas Station,Yoga Studio,Fast Food Restaurant,Electronics Store,Ethiopian Restaurant,Event Space,Falafel Restaurant,Farmers Market
189,Mississauga,Canada Post Gateway Processing Centre,Shell Car Wash,5722a31f498ee93a2413b41f,Car Wash,43.57052,-79.660093,4,Chinese Restaurant,Asian Restaurant,Supermarket,Mediterranean Restaurant,Furniture / Home Store,Spa,Sandwich Place,Pizza Place,Noodle House,Korean Restaurant
190,Scarborough,Upper Rouge,ESSO Car Wash,50e61b56e4b026ac788a0034,Car Wash,43.90867745145584,-79.26926607228928,0,Cha Chaan Teng,Bubble Tea Shop,Spa,Furniture / Home Store,Music Store,Bank,Garden Center,Fried Chicken Joint,Supermarket,Sandwich Place
